[
    {"name": "Wimmer Dal Gól", "grade": "8A+", "crag": "Vaňousovy Díry Vpravo", "city": "Holštejn", "location": "Moravský Kras"},
    {"name": "Blackout", "grade": "8A+", "crag": "Vaňousovy Díry", "city": "Holštejn", "location": "Moravský Kras"},
    {"name": "True Black", "grade": "8A", "crag": "Vaňousovy Díry", "city": "Holštejn", "location": "Moravský Kras"},
    {"name": "Made In China", "grade": "8A", "crag": "Vaňousovy Díry Vpravo", "city": "Holštejn", "location": "Moravský Kras"},
    {"name": "Vlnová Dálka", "grade": "8A", "crag": "Vaňousovy Díry Vlevo", "city": "Holštejn", "location": "Moravský Kras"},
    {"name": "Black", "grade": "8A", "crag": "Vaňousovy Díry", "city": "Holštejn", "location": "Moravský Kras"},
    {"name": "Branka", "grade": "8A", "crag": "Vaňousovy Díry Vpravo", "city": "Holštejn", "location": "Moravský Kras"},
    {"name": "Dívčí Válka - Levý Start", "grade": "7C+", "crag": "Vaňousovy Díry", "city": "Holštejn", "location": "Moravský Kras"},
    {"name": "Dívčí Válka", "grade": "7C", "crag": "Vaňousovy Díry Vlevo", "city": "Holštejn", "location": "Moravský Kras"},
    {"name": "Pidižvik V Las Vegas", "grade": "7C", "crag": "Vaňousovy Díry", "city": "Holštejn", "location": "Moravský Kras"},
    {"name": "Cesta Do Las Vegas", "grade": "7C", "crag": "Vaňousovy Díry", "city": "Holštejn", "location": "Moravský Kras"},
    {"name": "Píseň Práce", "grade": "7C", "crag": "Vaňousovy Díry", "city": "Holštejn", "location": "Moravský Kras"},
    {"name": "Jing", "grade": "7B+", "crag": "Vaňousovy Díry", "city": "Holštejn", "location": "Moravský Kras"},
    {"name": "Jang", "grade": "7B+", "crag": "Vaňousovy Díry", "city": "Holštejn", "location": "Moravský Kras"},
    {"name": "Supertraverz", "grade": "7B+", "crag": "Vaňousovy Díry", "city": "Holštejn", "location": "Moravský Kras"},
    {"name": "Palcošmé", "grade": "7B+", "crag": "Vaňousovy Díry", "city": "Holštejn", "location": "Moravský Kras"},
    {"name": "TinkyVinky", "grade": "7B+", "crag": "Vaňousovy Díry Vlevo", "city": "Holštejn", "location": "Moravský Kras"},
    {"name": "Zloděj Veršů A Vět", "grade": "7B+", "crag": "Vaňousovy Díry", "city": "Holštejn", "location": "Moravský Kras"},
    {"name": "Psina", "grade": "7B+", "crag": "Vaňousovy Díry", "city": "Holštejn", "location": "Moravský Kras"},
    {"name": "Protitraverz", "grade": "7B+", "crag": "Vaňousovy Díry", "city": "Holštejn", "location": "Moravský Kras"},
    {"name": "Myší Rejdění", "grade": "7B+", "crag": "Vaňousovy Díry", "city": "Holštejn", "location": "Moravský Kras"},
    {"name": "Požárnickej Sonet", "grade": "7B+", "crag": "Vaňousovy Díry", "city": "Holštejn", "location": "Moravský Kras"},
    {"name": "Šmelina", "grade": "7B+", "crag": "Vaňousovy Díry", "city": "Holštejn", "location": "Moravský Kras"},
    {"name": "Strach A Hnus V Las Vegas", "grade": "7B", "crag": "Vaňousovy Díry", "city": "Holštejn", "location": "Moravský Kras"},
    {"name": "Na Tu Vojnu", "grade": "7B", "crag": "Vaňousovy Díry", "city": "Holštejn", "location": "Moravský Kras"},
    {"name": "Dan Osman", "grade": "7B", "crag": "Vaňousovy Díry", "city": "Holštejn", "location": "Moravský Kras"},
    {"name": "Děs Běs", "grade": "7B", "crag": "Vaňousovy Díry", "city": "Holštejn", "location": "Moravský Kras"},
    {"name": "Sklapovačka", "grade": "7B", "crag": "Vaňousovy Díry", "city": "Holštejn", "location": "Moravský Kras"},
    {"name": "Z Lásky K Filovi", "grade": "7B", "crag": "Vaňousovy Díry", "city": "Holštejn", "location": "Moravský Kras"},
    {"name": "Fire And Fall", "grade": "7B", "crag": "Vaňousovy Díry", "city": "Holštejn", "location": "Moravský Kras"},
    {"name": "Myšina", "grade": "7B", "crag": "Vaňousovy Díry", "city": "Holštejn", "location": "Moravský Kras"},
    {"name": "Myší Rej", "grade": "7B", "crag": "Vaňousovy Díry", "city": "Holštejn", "location": "Moravský Kras"},
    {"name": "Divá Bára", "grade": "7B", "crag": "Vaňousovy Díry", "city": "Holštejn", "location": "Moravský Kras"},
    {"name": "Báry Čáry", "grade": "7B", "crag": "Vaňousovy Díry", "city": "Holštejn", "location": "Moravský Kras"},
    {"name": "Šméčko", "grade": "7B", "crag": "Vaňousovy Díry", "city": "Holštejn", "location": "Moravský Kras"},
    {"name": "Lez Nebo Nech Být", "grade": "7B", "crag": "Vaňousovy Díry", "city": "Holštejn", "location": "Moravský Kras"},
    {"name": "Jump And Fall", "grade": "7A+", "crag": "Vaňousovy Díry", "city": "Holštejn", "location": "Moravský Kras"},
    {"name": "Prsti V Ohni", "grade": "7A+", "crag": "Vaňousovy Díry", "city": "Holštejn", "location": "Moravský Kras"},
    {"name": "Kniha", "grade": "7A+", "crag": "Vaňousovy Díry", "city": "Holštejn", "location": "Moravský Kras"},
    {"name": "Amor", "grade": "7A+", "crag": "Vaňousovy Díry", "city": "Holštejn", "location": "Moravský Kras"},
    {"name": "Zapomnětlivý Traverz", "grade": "7A+", "crag": "Vaňousovy Díry", "city": "Holštejn", "location": "Moravský Kras"},
    {"name": "Kniha Invert", "grade": "7A+", "crag": "Vaňousovy Díry", "city": "Holštejn", "location": "Moravský Kras"},
    {"name": "Gól", "grade": "7A", "crag": "Vaňousovy Díry Vpravo", "city": "Holštejn", "location": "Moravský Kras"},
    {"name": "Tod Skinner", "grade": "7A", "crag": "Vaňousovy Díry Vlevo", "city": "Holštejn", "location": "Moravský Kras"},
    {"name": "Supertraverz Soft", "grade": "7A", "crag": "Vaňousovy Díry", "city": "Holštejn", "location": "Moravský Kras"},
    {"name": "Travers", "grade": "7A", "crag": "Vaňousovy Díry Vpravo", "city": "Holštejn", "location": "Moravský Kras"},
    {"name": "Jump", "grade": "7A", "crag": "Vaňousovy Díry", "city": "Holštejn", "location": "Moravský Kras"},
    {"name": "Klasika", "grade": "7A", "crag": "Vaňousovy Díry", "city": "Holštejn", "location": "Moravský Kras"},
    {"name": "Barbařiny První Krůčky", "grade": "7A", "crag": "Vaňousovy Díry", "city": "Holštejn", "location": "Moravský Kras"},
    {"name": "Sonet", "grade": "7A", "crag": "Vaňousovy Díry", "city": "Holštejn", "location": "Moravský Kras"},
    {"name": "Po", "grade": "7A", "crag": "Vaňousovy Díry", "city": "Holštejn", "location": "Moravský Kras"},
    {"name": "Supertravers Soft", "grade": "7A", "crag": "Vaňousovy Díry Vpravo", "city": "Holštejn", "location": "Moravský Kras"},
    {"name": "Doslov", "grade": "6C+/7A", "crag": "Vaňousovy Díry", "city": "Holštejn", "location": "Moravský Kras"},
    {"name": "50 Odstínů Šedi", "grade": "6C+", "crag": "Vaňousovy Díry Vlevo", "city": "Holštejn", "location": "Moravský Kras"},
    {"name": "Šťavnatá Jóni", "grade": "6C+", "crag": "Vaňousovy Díry", "city": "Holštejn", "location": "Moravský Kras"},
    {"name": "Skok Do Police", "grade": "6C", "crag": "Vaňousovy Díry", "city": "Holštejn", "location": "Moravský Kras"},
    {"name": "Kukarača", "grade": "6C", "crag": "Vaňousovy Díry", "city": "Holštejn", "location": "Moravský Kras"},
    {"name": "Džavánesovská Cenzura", "grade": "6B+/6C", "crag": "Vaňousovy Díry", "city": "Holštejn", "location": "Moravský Kras"},
    {"name": "Idahobouldr", "grade": "6B+", "crag": "Vaňousovy Díry Vlevo", "city": "Holštejn", "location": "Moravský Kras"},
    {"name": "Hopsa Hejsa", "grade": "6B+", "crag": "Vaňousovy Díry Vpravo", "city": "Holštejn", "location": "Moravský Kras"},
    {"name": "Rozpažka", "grade": "6B+", "crag": "Vaňousovy Díry", "city": "Holštejn", "location": "Moravský Kras"},
    {"name": "Prstoklad", "grade": "6B", "crag": "Vaňousovy Díry", "city": "Holštejn", "location": "Moravský Kras"},
    {"name": "Obláč", "grade": "6B", "crag": "Vaňousovy Díry Vpravo", "city": "Holštejn", "location": "Moravský Kras"},
    {"name": "Nivelace", "grade": "6B", "crag": "Vaňousovy Díry", "city": "Holštejn", "location": "Moravský Kras"},
    {"name": "Posser", "grade": "6B", "crag": "Vaňousovy Díry", "city": "Holštejn", "location": "Moravský Kras"},
    {"name": "Prequel", "grade": "6B", "crag": "Vaňousovy Díry", "city": "Holštejn", "location": "Moravský Kras"},
    {"name": "Prequel Reverse", "grade": "6B", "crag": "Vaňousovy Díry", "city": "Holštejn", "location": "Moravský Kras"},
    {"name": "Krotká Jóni", "grade": "6A+", "crag": "Vaňousovy Díry", "city": "Holštejn", "location": "Moravský Kras"},
    {"name": "Dosser Krass Variante", "grade": "6A+", "crag": "Vaňousovy Díry", "city": "Holštejn", "location": "Moravský Kras"},
    {"name": "Boulder", "grade": "6A", "crag": "Vaňousovy Díry Vlevo", "city": "Holštejn", "location": "Moravský Kras"},
    {"name": "Protlak", "grade": "6A", "crag": "Vaňousovy Díry", "city": "Holštejn", "location": "Moravský Kras"},
    {"name": "Očekávání", "grade": "6A", "crag": "Vaňousovy Díry", "city": "Holštejn", "location": "Moravský Kras"},
    {"name": "Dosser", "grade": "6A", "crag": "Vaňousovy Díry", "city": "Holštejn", "location": "Moravský Kras"},
    {"name": "Porodní Asistent SD", "grade": "6A", "crag": "Vaňousovy Díry", "city": "Holštejn", "location": "Moravský Kras"},
    {"name": "Líný Joe", "grade": "6A", "crag": "Vaňousovy Díry", "city": "Holštejn", "location": "Moravský Kras"}
]

